%time,field.header.seq,field.header.stamp,field.header.frame_id,field.pose.position.x,field.pose.position.y,field.pose.position.z,field.pose.orientation.x,field.pose.orientation.y,field.pose.orientation.z,field.pose.orientation.w
24285000000,2394,24253000000,world,-0.000382405685807,-0.000306850631201,0.182464416184,3.7177622007e-07,6.47932195436e-06,-0.00433388950899,0.999990608636
24287000000,2395,24263000000,world,-0.000384745826678,-0.000306639741945,0.182465918569,-1.30812595766e-07,1.00867866364e-07,-0.00433486405731,0.999990604433
24287000000,2396,24273000000,world,-0.000385607641177,-0.000307654310083,0.182465926101,2.67211313867e-06,-2.2113142131e-06,-0.00433562756097,0.999990601117
24287000000,2397,24283000000,world,-0.000382463924645,-0.000306864594965,0.182464416186,3.71792020596e-07,6.47931789594e-06,-0.00433655457674,0.999990597082
24330000000,2398,24293000000,world,-0.000384804062804,-0.000306653695439,0.182465918569,-1.30804441893e-07,1.00867478593e-07,-0.00433752909173,0.999990592876
24331000000,2399,24303000000,world,-0.00038566588267,-0.00030766825591,0.182465926101,2.67210964946e-06,-2.21132332234e-06,-0.00433829257739,0.999990589558
24331000000,2400,24313000000,world,-0.000382522161394,-0.000306878554802,0.182464416189,3.71807820584e-07,6.4793138373e-06,-0.00433921955982,0.999990585521
24331000000,2401,24323000000,world,-0.000384862296842,-0.000306667645006,0.182465918569,-1.30796288394e-07,1.00867090862e-07,-0.00434019404148,0.999990581313
24370000000,2402,24333000000,world,-0.000385724122073,-0.000307682197809,0.182465926101,2.67210616025e-06,-2.2113324312e-06,-0.00434095750914,0.999990577994
24370000000,2403,24343000000,world,-0.000382580396054,-0.00030689251071,0.182464416192,3.71823620013e-07,6.47930977859e-06,-0.00434188445824,0.999990573954
24370000000,2404,24353000000,world,-0.000384920528791,-0.000306681590644,0.182465918569,-1.30788135235e-07,1.00866703215e-07,-0.00434285890658,0.999990569744
24370000000,2405,24363000000,world,-0.000385782359387,-0.000307696135781,0.182465926101,2.67210267091e-06,-2.21134153961e-06,-0.00434362235624,0.999990566422
24409000000,2406,24373000000,world,-0.000382638628626,-0.00030690646269,0.182464416194,3.71839418888e-07,6.47930571981e-06,-0.00434454927199,0.99999056238
24410000000,2407,24383000000,world,-0.000384978758651,-0.000306695532356,0.182465918569,-1.30779982302e-07,1.00866315689e-07,-0.00434552368701,0.999990558167
24410000000,2408,24393000000,world,-0.000385840594612,-0.000307710069826,0.182465926101,2.67209918172e-06,-2.21135064773e-06,-0.00434628711867,0.999990554844
24410000000,2409,24403000000,world,-0.000382696859109,-0.000306920410744,0.182464416197,3.71855217364e-07,6.47930166094e-06,-0.00434721400109,0.9999905508
24451000000,2410,24413000000,world,-0.000385036986422,-0.000306709470142,0.182465918569,-1.30771829714e-07,1.00865928135e-07,-0.00434818838279,0.999990546584
24451000000,2411,24423000000,world,-0.000385898827749,-0.000307723999945,0.182465926101,2.67209569236e-06,-2.21135975543e-06,-0.00434895179645,0.999990543258
24451000000,2412,24433000000,world,-0.000382755087503,-0.000306934354871,0.1824644162,3.71871015222e-07,6.47929760169e-06,-0.00434987864553,0.999990539212
24451000000,2413,24443000000,world,-0.000385095212105,-0.000306723404001,0.182465918569,-1.30763677509e-07,1.00865540715e-07,-0.00435085299391,0.999990534994
24485000000,2414,24453000000,world,-0.000385957058796,-0.000307737926138,0.182465926101,2.67209220309e-06,-2.21136886272e-06,-0.00435161638957,0.999990531667
24485000000,2415,24463000000,world,-0.000382813313809,-0.000306948295072,0.182464416203,3.71886812557e-07,6.47929354235e-06,-0.00435254320533,0.999990527618
24485000000,2416,24473000000,world,-0.000385153435699,-0.000306737333935,0.182465918569,-1.30755525546e-07,1.0086515322e-07,-0.00435351752039,0.999990523398
24485000000,2417,24483000000,world,-0.000386015287755,-0.000307751848406,0.182465926101,2.67208871365e-06,-2.21137796964e-06,-0.00435428089805,0.999990520068
24521000000,2418,24493000000,world,-0.000382871538027,-0.000306962231347,0.182464416205,3.71902609497e-07,6.47928948294e-06,-0.00435520768047,0.999990516017
24522000000,2419,24503000000,world,-0.000385211657206,-0.000306751259944,0.182465918569,-1.30747374044e-07,1.00864765846e-07,-0.00435618196222,0.999990511794
24522000000,2420,24513000000,world,-0.000386073514626,-0.00030776576675,0.182465926101,2.67208522446e-06,-2.21138707637e-06,-0.00435694532188,0.999990508463
24523000000,2421,24523000000,world,-0.000382929760157,-0.000306976163698,0.182464416208,3.71918405941e-07,6.47928542335e-06,-0.00435787207097,0.999990504409
24534000000,2422,24533000000,world,-0.000385269876624,-0.000306765182028,0.182465918569,-1.30739222884e-07,1.00864378547e-07,-0.0043588463194,0.999990500184
24573000000,2423,24543000000,world,-0.000386131739409,-0.000307779681169,0.182465926101,2.672081735e-06,-2.2113961825e-06,-0.00435960966107,0.999990496851
24573000000,2424,24553000000,world,-0.000382987980199,-0.000306990092125,0.182464416211,3.71934201791e-07,6.47928136364e-06,-0.00436053637683,0.999990492795
24573000000,2425,24563000000,world,-0.000385328093954,-0.000306779100189,0.18246591857,-1.30731071979e-07,1.00863991253e-07,-0.00436151059195,0.999990488567
24612000000,2426,24573000000,world,-0.000386189962103,-0.000307793591665,0.182465926101,2.67207824563e-06,-2.21140528835e-06,-0.00436227391561,0.999990485232
24612000000,2427,24583000000,world,-0.000383046198153,-0.000307004016627,0.182464416213,3.71949997126e-07,6.4792773037e-06,-0.00436320059806,0.999990481174
24612000000,2428,24593000000,world,-0.000385386309197,-0.000306793014427,0.18246591857,-1.30722921525e-07,1.00863604071e-07,-0.00436417477986,0.999990476944
24612000000,2429,24603000000,world,-0.00038624818271,-0.000307807498237,0.182465926101,2.67207475624e-06,-2.21141439379e-06,-0.00436493808553,0.999990473606
24647000000,2430,24613000000,world,-0.00038310441402,-0.000307017937207,0.182464416216,3.71965792048e-07,6.47927324376e-06,-0.00436586473464,0.999990469546
24648000000,2431,24623000000,world,-0.000385444522352,-0.000306806924742,0.18246591857,-1.30714771242e-07,1.00863216894e-07,-0.00436683888313,0.999990465314
24648000000,2432,24633000000,world,-0.000386306401228,-0.000307821400888,0.182465926101,2.67207126688e-06,-2.21142349898e-06,-0.0043676021708,0.999990461974
24648000000,2433,24643000000,world,-0.000383162627799,-0.000307031853864,0.182464416219,3.71981586434e-07,6.47926918361e-06,-0.0043685287866,0.999990457912
24678000000,2434,24653000000,world,-0.000385502733419,-0.000306820831134,0.18246591857,-1.3070662139e-07,1.00862829826e-07,-0.00436950290177,0.999990453677
24678000000,2435,24663000000,world,-0.000386364617659,-0.000307835299616,0.182465926101,2.67206777746e-06,-2.21143260369e-06,-0.00437026617145,0.999990450335
24680000000,2436,24673000000,world,-0.00038322083949,-0.000307045766599,0.182464416222,3.71997380249e-07,6.4792651234e-06,-0.00437119275392,0.99999044627
24687000000,2437,24683000000,world,-0.000385560942399,-0.000306834733605,0.18246591857,-1.30698471918e-07,1.0086244279e-07,-0.00437216683579,0.999990442033
24693000000,2438,24693000000,world,-0.000386422832002,-0.000307849194423,0.182465926101,2.67206428805e-06,-2.2114417081e-06,-0.00437293008747,0.99999043869
24716000000,2439,24703000000,world,-0.000383279049095,-0.000307059675412,0.182464416224,3.72013173648e-07,6.47926106286e-06,-0.00437385663662,0.999990434622
24716000000,2440,24713000000,world,-0.000385619149292,-0.000306848632155,0.18246591857,-1.30690322711e-07,1.00862055754e-07,-0.00437483068518,0.999990430382
24745000000,2441,24723000000,world,-0.000386481044258,-0.00030786308531,0.182465926101,2.67206079853e-06,-2.21145081197e-06,-0.00437559391887,0.999990427037
24745000000,2442,24733000000,world,-0.000383337256613,-0.000307073580304,0.182464416227,3.72028966442e-07,6.47925700221e-06,-0.0043765204347,0.999990422968
24745000000,2443,24743000000,world,-0.000385677354098,-0.000306862526785,0.18246591857,-1.30682173909e-07,1.00861668842e-07,-0.00437749444996,0.999990418725
24778000000,2444,24753000000,world,-0.000386539254427,-0.000307876972276,0.182465926101,2.67205730906e-06,-2.21145991561e-06,-0.00437825766565,0.999990415378
24778000000,2445,24763000000,world,-0.000383395462043,-0.000307087481276,0.18246441623,3.72044758744e-07,6.47925294157e-06,-0.00437918414816,0.999990411306
24778000000,2446,24773000000,world,-0.000385735556817,-0.000306876417494,0.18246591857,-1.30674025437e-07,1.00861281992e-07,-0.00438015813011,0.999990407061
24812000000,2447,24783000000,world,-0.000386597462508,-0.000307890855322,0.182465926101,2.67205381956e-06,-2.2114690188e-06,-0.00438092132781,0.999990403712
24812000000,2448,24793000000,world,-0.000383453665387,-0.000307101378327,0.182464416233,3.72060550518e-07,6.47924888064e-06,-0.004381847777,0.999990399638
24812000000,2449,24803000000,world,-0.000385793757449,-0.000306890304284,0.18246591857,-1.30665877224e-07,1.00860895184e-07,-0.00438282172565,0.999990395391
24844000000,2450,24813000000,world,-0.000386655668533,-0.000307904734531,0.182465926101,2.67205036859e-06,-2.21147815353e-06,-0.00438358490506,0.99999039204
24844000000,2451,24823000000,world,-0.000383511866656,-0.000307115271526,0.182464416235,3.72076348157e-07,6.47924482738e-06,-0.00438451132079,0.999990387963
24844000000,2452,24833000000,world,-0.000385851956009,-0.000306904187221,0.18246591857,-1.30657726669e-07,1.00860507926e-07,-0.00438548523611,0.999990383713
24844000000,2453,24843000000,world,-0.000386713872491,-0.000307918609903,0.182465926101,2.67204692572e-06,-2.21148729461e-06,-0.00438624839717,0.99999038036
24884000000,2454,24853000000,world,-0.000383570065854,-0.000307129160885,0.182464416238,3.72092146494e-07,6.47924077551e-06,-0.00438717477941,0.999990376281
24884000000,2455,24863000000,world,-0.000385910152499,-0.000306918066318,0.18246591857,-1.30649575708e-07,1.00860120627e-07,-0.0043881486614,0.999990372029
24884000000,2456,24873000000,world,-0.000386772074378,-0.000307932481434,0.182465926101,2.67204348292e-06,-2.21149643536e-06,-0.00438891180411,0.999990368674
24884000000,2457,24883000000,world,-0.000383628262983,-0.000307143046403,0.182464416241,3.72107944319e-07,6.4792367236e-06,-0.00438983815286,0.999990364593
24920000000,2458,24893000000,world,-0.000385968346919,-0.000306931941574,0.18246591857,-1.30641425252e-07,1.00859733415e-07,-0.00439081200152,0.999990360339
24920000000,2459,24903000000,world,-0.000386830274196,-0.000307946349126,0.182465926101,2.67204004001e-06,-2.21150557569e-06,-0.00439157512588,0.999990356981
24920000000,2460,24913000000,world,-0.000383686458042,-0.000307156928082,0.182464416243,3.72123741705e-07,6.47923267141e-06,-0.00439250144115,0.999990352898
24924000000,2461,24923000000,world,-0.000386026539269,-0.000306945812991,0.18246591857,-1.30633274902e-07,1.00859346245e-07,-0.00439347525647,0.999990348641
24933000000,2462,24933000000,world,-0.000386888471944,-0.000307960212979,0.182465926101,2.6720365972e-06,-2.21151471567e-06,-0.00439423836248,0.999990345282
24965000000,2463,24943000000,world,-0.000383744651032,-0.000307170805921,0.182464416246,3.72139538616e-07,6.47922861916e-06,-0.00439516464427,0.999990341196
24965000000,2464,24953000000,world,-0.00038608472955,-0.00030695968057,0.18246591857,-1.30625125042e-07,1.00858959074e-07,-0.00439613842627,0.999990336937
24965000000,2465,24963000000,world,-0.000386946667612,-0.000307974072978,0.182465926101,2.67203312534e-06,-2.21152383133e-06,-0.00439690151392,0.999990333576
25001000000,2466,24973000000,world,-0.000383802841955,-0.000307184679915,0.182464416249,3.72155329837e-07,6.47922456124e-06,-0.0043978277623,0.999990329488
25001000000,2467,24983000000,world,-0.000386142917762,-0.000306973544305,0.182465918571,-1.30616977438e-07,1.00858572353e-07,-0.00439880151099,0.999990325226
25001000000,2468,24993000000,world,-0.000387004861208,-0.00030798792913,0.182465926101,2.67202964861e-06,-2.2115329426e-06,-0.0043995645803,0.999990321863
25036000000,2469,25003000000,world,-0.000383861030808,-0.000307198550064,0.182464416252,3.72171119948e-07,6.47922050241e-06,-0.00440049079528,0.999990317772
25036000000,2470,25013000000,world,-0.000386201103904,-0.000306987404195,0.182465918571,-1.30608830567e-07,1.00858185809e-07,-0.00440146451067,0.999990313508
25036000000,2471,25023000000,world,-0.000387063052734,-0.000308001781438,0.182465926101,2.67202617186e-06,-2.21154205353e-06,-0.00440222756162,0.999990310143
25036000000,2472,25033000000,world,-0.000383919217593,-0.000307212416369,0.182464416254,3.72186909411e-07,6.47921644324e-06,-0.00440315374321,0.999990306051
25071000000,2473,25043000000,world,-0.000386259287978,-0.000307001260243,0.182465918571,-1.30600683793e-07,1.00857799184e-07,-0.00440412742529,0.999990301784
25071000000,2474,25053000000,world,-0.000387121242192,-0.000308015629904,0.182465926101,2.67202269503e-06,-2.21155116398e-06,-0.00440489045789,0.999990298417
25071000000,2475,25063000000,world,-0.000383977402308,-0.000307226278831,0.182464416257,3.72202698379e-07,6.47921238401e-06,-0.00440581660609,0.999990294322
25073000000,2476,25073000000,world,-0.000386317469982,-0.000307015112447,0.182465918571,-1.30592537547e-07,1.00857412704e-07,-0.00440679025488,0.999990290053
25083000000,2477,25083000000,world,-0.00038717942958,-0.000308029474527,0.182465926101,2.67201921819e-06,-2.21156027415e-06,-0.00440755326913,0.999990286684
25120000000,2478,25093000000,world,-0.000384035584955,-0.000307240137451,0.18246441626,3.72218486968e-07,6.47920832451e-06,-0.00440847938393,0.999990282586
25120000000,2479,25103000000,world,-0.000386375649918,-0.00030702896081,0.182465918571,-1.30584391597e-07,1.00857026285e-07,-0.00440945299942,0.999990278315
25120000000,2480,25113000000,world,-0.000387237614899,-0.000308043315309,0.182465926101,2.6720157414e-06,-2.21156938397e-06,-0.00441021599532,0.999990274944
25156000000,2481,25123000000,world,-0.000384093765533,-0.000307253992228,0.182464416262,3.72234274946e-07,6.47920426498e-06,-0.00441114207674,0.999990270844
25156000000,2482,25133000000,world,-0.000386433827785,-0.000307042805331,0.182465918571,-1.30576245958e-07,1.00856639847e-07,-0.00441211565893,0.99999026657
25156000000,2483,25143000000,world,-0.00038729579815,-0.000308057152248,0.182465926101,2.67201226453e-06,-2.21157849328e-06,-0.00441287863648,0.999990263198
25156000000,2484,25153000000,world,-0.000384151944042,-0.000307267843164,0.182464416265,3.72250062275e-07,6.47920020533e-06,-0.00441380468451,0.999990259096
25191000000,2485,25163000000,world,-0.000386492003584,-0.00030705664601,0.182465918571,-1.30568100728e-07,1.00856253465e-07,-0.0044147782334,0.999990254819
25191000000,2486,25173000000,world,-0.000387353979331,-0.000308070985347,0.182465926101,2.67200878774e-06,-2.21158760236e-06,-0.0044155411926,0.999990251444
25191000000,2487,25183000000,world,-0.000384210120484,-0.000307281690258,0.182464416268,3.7226584923e-07,6.47919614546e-06,-0.00441646720725,0.99999024734
25193000000,2488,25193000000,world,-0.000386550177314,-0.000307070482849,0.182465918571,-1.30559955743e-07,1.00855867235e-07,-0.00441744072284,0.999990243061
25203000000,2489,25203000000,world,-0.000387412158445,-0.000308084814606,0.182465926101,2.67200531093e-06,-2.21159671105e-06,-0.00441820366369,0.999990239685
25241000000,2490,25213000000,world,-0.000384268294857,-0.000307295533512,0.182464416271,3.7228163582e-07,6.47919208548e-06,-0.00441912964495,0.999990235578
25241000000,2491,25223000000,world,-0.000386608348976,-0.000307084315848,0.182465918571,-1.30551811255e-07,1.00855480934e-07,-0.00442010312725,0.999990231296
25242000000,2492,25233000000,world,-0.000387470335489,-0.000308098640025,0.182465926101,2.67200183404e-06,-2.21160581934e-06,-0.00442086604976,0.999990227918
25278000000,2493,25243000000,world,-0.000384326467162,-0.000307309372926,0.182464416273,3.72297421742e-07,6.47918802536e-06,-0.00442179199764,0.999990223809
25278000000,2494,25253000000,world,-0.00038666651857,-0.000307098145008,0.182465918571,-1.30543667044e-07,1.00855094807e-07,-0.00442276544664,0.999990219525
25278000000,2495,25263000000,world,-0.000387528510466,-0.000308112461604,0.182465926101,2.67199835726e-06,-2.21161492731e-06,-0.0044235283508,0.999990216145
25278000000,2496,25273000000,world,-0.000384384637399,-0.0003073232085,0.182464416276,3.72313207117e-07,6.47918396512e-06,-0.0044244542653,0.999990212033
25315000000,2497,25283000000,world,-0.000386724686095,-0.000307111970328,0.182465918571,-1.30535523175e-07,1.0085470867e-07,-0.00442542768101,0.999990207747
25315000000,2498,25293000000,world,-0.000387586683374,-0.000308126279345,0.182465926101,2.6719948803e-06,-2.21162403478e-06,-0.00442619056682,0.999990204365
25315000000,2499,25303000000,world,-0.000384442805568,-0.000307337040236,0.182464416279,3.72328992096e-07,6.47917990472e-06,-0.00442711644794,0.999990200251
25315000000,2500,25313000000,world,-0.000386782851554,-0.00030712579181,0.182465918571,-1.3052737981e-07,1.00854322557e-07,-0.00442808983036,0.999990195962
25352000000,2501,25323000000,world,-0.000387644854214,-0.000308140093248,0.182465926101,2.67199140345e-06,-2.21163314201e-06,-0.00442885269783,0.999990192578
25352000000,2502,25333000000,world,-0.00038450097167,-0.000307350868133,0.182464416281,3.72344776543e-07,6.47917584408e-06,-0.00442977854556,0.999990188462
25352000000,2503,25343000000,world,-0.000386841014944,-0.000307139609455,0.182465918571,-1.30519236741e-07,1.0085393661e-07,-0.0044307518947,0.999990184171
25353000000,2504,25353000000,world,-0.000387703022987,-0.000308153903313,0.182465926101,2.67198792636e-06,-2.21164224868e-06,-0.00443151474382,0.999990180784
25363000000,2505,25363000000,world,-0.000384559135704,-0.000307364692193,0.182464416284,3.72360560377e-07,6.47917178337e-06,-0.00443244055817,0.999990176666
25404000000,2506,25373000000,world,-0.000386899176267,-0.000307153423262,0.182465918571,-1.30511093989e-07,1.0085355068e-07,-0.00443341387402,0.999990172372
25404000000,2507,25383000000,world,-0.000387761189691,-0.000308167709542,0.182465926101,2.67198444922e-06,-2.21165135491e-06,-0.00443417670479,0.999990168984
25404000000,2508,25393000000,world,-0.000384617297671,-0.000307378512415,0.182464416287,3.72376343717e-07,6.47916772257e-06,-0.00443510248578,0.999990164864
25404000000,2509,25403000000,world,-0.000386957335523,-0.000307167233232,0.182465918572,-1.30502951534e-07,1.00853164761e-07,-0.00443607576834,0.999990160567
25444000000,2510,25413000000,world,-0.000387819354329,-0.000308181511933,0.182465926101,2.67198097192e-06,-2.21166046071e-06,-0.00443683858077,0.999990157177
25444000000,2511,25423000000,world,-0.000384675457571,-0.0003073923288,0.18246441629,3.72392126559e-07,6.47916366138e-06,-0.00443776432837,0.999990153054
25444000000,2512,25433000000,world,-0.000387015492712,-0.000307181039366,0.182465918572,-1.30494809537e-07,1.00852778926e-07,-0.00443873757765,0.999990148756
25444000000,2513,25443000000,world,-0.000387877516918,-0.00030819531054,0.182465926101,2.6719775168e-06,-2.21166958426e-06,-0.00443950037162,0.999990145364
25479000000,2514,25453000000,world,-0.000384733615416,-0.000307406141397,0.182464416292,3.72407913204e-07,6.4791596037e-06,-0.00444042608587,0.999990141238
25479000000,2515,25463000000,world,-0.000387073647848,-0.00030719484171,0.182465918572,-1.30486666889e-07,1.00852392954e-07,-0.00444139930185,0.999990136937
25479000000,2516,25473000000,world,-0.000387935677458,-0.000308209105366,0.182465926101,2.67197406564e-06,-2.21167871074e-06,-0.00444216207734,0.999990133543
25484000000,2517,25483000000,world,-0.000384791771212,-0.000307419950211,0.182464416295,3.72423699998e-07,6.47915554647e-06,-0.00444308775823,0.999990129416
25493000000,2518,25493000000,world,-0.000387131800933,-0.000307208640274,0.182465918572,-1.30478524402e-07,1.00852006944e-07,-0.00444406094092,0.999990125112
25524000000,2519,25503000000,world,-0.000387993835947,-0.000308222896412,0.182465926101,2.67197061453e-06,-2.21168783692e-06,-0.00444482369793,0.999990121716
25525000000,2520,25513000000,world,-0.000384849924957,-0.000307433755245,0.182464416298,3.7243948638e-07,6.47915148907e-06,-0.00444574934547,0.999990117586
25525000000,2521,25523000000,world,-0.000387189951969,-0.000307222435057,0.182465918572,-1.30470382239e-07,1.00851621024e-07,-0.00444672249486,0.999990113281
25566000000,2522,25533000000,world,-0.000388051992387,-0.000308236683677,0.182465926101,2.67196716345e-06,-2.21169696274e-06,-0.00444748523339,0.999990109883
25566000000,2523,25543000000,world,-0.000384908076652,-0.000307447556498,0.1824644163,3.72455272279e-07,6.47914743179e-06,-0.00444841084758,0.99999010575
25566000000,2524,25553000000,world,-0.000387248100954,-0.00030723622606,0.182465918572,-1.30462240529e-07,1.00851235141e-07,-0.00444938396369,0.999990101442
25566000000,2525,25563000000,world,-0.000388110146776,-0.000308250467162,0.182465926101,2.67196371245e-06,-2.21170608827e-06,-0.00445014668373,0.999990098042
25603000000,2526,25573000000,world,-0.000384966226298,-0.000307461353972,0.182464416303,3.72471057736e-07,6.47914337415e-06,-0.00445107226457,0.999990093908
25603000000,2527,25583000000,world,-0.00038730624789,-0.000307250013283,0.182465918572,-1.30454098821e-07,1.00850849317e-07,-0.00445204534738,0.999990089597
25603000000,2528,25593000000,world,-0.000388168299115,-0.000308264246868,0.182465926101,2.67196026122e-06,-2.21171521323e-06,-0.00445280804895,0.999990086195
25603000000,2529,25603000000,world,-0.000385024373894,-0.000307475147665,0.182464416306,3.72486842429e-07,6.47913931644e-06,-0.00445373359645,0.999990082058
25641000000,2530,25613000000,world,-0.000387364392776,-0.000307263796728,0.182465918572,-1.30445957782e-07,1.0085046355e-07,-0.00445470664597,0.999990077745
25641000000,2531,25623000000,world,-0.000388226449404,-0.000308278022795,0.182465926101,2.6719568102e-06,-2.211724338e-06,-0.00445546932905,0.999990074341
25641000000,2532,25633000000,world,-0.00038508251944,-0.00030748893758,0.182464416309,3.72502626858e-07,6.47913525873e-06,-0.0044563948432,0.999990070202
25643000000,2533,25643000000,world,-0.000387422535613,-0.000307277576394,0.182465918572,-1.30437816926e-07,1.00850077791e-07,-0.00445736785943,0.999990065887
25653000000,2534,25653000000,world,-0.000388284597643,-0.000308291794945,0.182465926101,2.67195335907e-06,-2.21173346234e-06,-0.00445813052404,0.999990062481
25682000000,2535,25663000000,world,-0.000385140662937,-0.000307502723716,0.182464416311,3.72518410644e-07,6.47913120081e-06,-0.00445905600485,0.999990058339
25683000000,2536,25673000000,world,-0.0003874806764,-0.000307291352282,0.182465918572,-1.30429676465e-07,1.00849692146e-07,-0.00446002898779,0.999990054021
25724000000,2537,25683000000,world,-0.000388342743833,-0.000308305563316,0.182465926101,2.67194990797e-06,-2.21174258636e-06,-0.00446079163392,0.999990050613
25724000000,2538,25693000000,world,-0.000385198804385,-0.000307516506075,0.182464416314,3.72534194091e-07,6.47912714268e-06,-0.00446171708138,0.99999004647
25724000000,2539,25703000000,world,-0.000387538815138,-0.000307305124392,0.182465918572,-1.30421536377e-07,1.00849306502e-07,-0.00446269003104,0.999990042149
25724000000,2540,25713000000,world,-0.000388400887974,-0.000308319327911,0.182465926101,2.6719464569e-06,-2.21175170995e-06,-0.0044634526587,0.99999003874
25724000000,2541,25723000000,world,-0.000385256943784,-0.000307530284656,0.182464416317,3.72549976933e-07,6.47912308437e-06,-0.00446437807281,0.999990034593
25765000000,2542,25733000000,world,-0.000387596951827,-0.000307318892726,0.182465918572,-1.30413396508e-07,1.00848921006e-07,-0.00446535098918,0.999990030271
25765000000,2543,25743000000,world,-0.000388459030065,-0.000308333088729,0.182465926101,2.67194300567e-06,-2.21176083315e-06,-0.00446611359836,0.999990026859
25765000000,2544,25753000000,world,-0.000385315081134,-0.000307544059461,0.182464416319,3.72565759202e-07,6.47911902589e-06,-0.00446703897913,0.999990022711
25765000000,2545,25763000000,world,-0.000387655086467,-0.000307332657284,0.182465918572,-1.30405257143e-07,1.00848535494e-07,-0.00446801186223,0.999990018385
25775000000,2546,25773000000,world,-0.000388517170107,-0.000308346845771,0.182465926101,2.67193955453e-06,-2.21176995603e-06,-0.00446877445293,0.999990014972
25784000000,2547,25783000000,world,-0.000385373216435,-0.000307557830489,0.182464416322,3.72581541056e-07,6.47911496737e-06,-0.00446969980036,0.999990010821
25819000000,2548,25793000000,world,-0.000387713219059,-0.000307346418066,0.182465918572,-1.30397117995e-07,1.00848150032e-07,-0.00447067265017,0.999990006493
25819000000,2549,25803000000,world,-0.0003885753081,-0.000308360599037,0.182465926101,2.67193610338e-06,-2.21177907855e-06,-0.0044714352224,0.999990003078
25819000000,2550,25813000000,world,-0.000385431349687,-0.000307571597741,0.182464416325,3.72597322306e-07,6.47911090879e-06,-0.00447236053649,0.999989998925
25861000000,2551,25823000000,world,-0.000387771349601,-0.000307360175073,0.182465918573,-1.30388979145e-07,1.00847764578e-07,-0.00447333335302,0.999989994594
25862000000,2552,25833000000,world,-0.000388633444044,-0.000308374348529,0.182465926101,2.67193265224e-06,-2.21178820067e-06,-0.00447409590677,0.999989991177
25862000000,2553,25843000000,world,-0.000385489480891,-0.000307585361219,0.182464416328,3.72613103136e-07,6.47910684998e-06,-0.00447502118753,0.999989987021
25862000000,2554,25853000000,world,-0.000387829478095,-0.000307373928305,0.182465918573,-1.30380840647e-07,1.00847379362e-07,-0.00447599397078,0.999989982689
25906000000,2555,25863000000,world,-0.00038869157794,-0.000308388094246,0.182465926101,2.67192920097e-06,-2.21179732236e-06,-0.00447675650606,0.999989979269
25906000000,2556,25873000000,world,-0.000385547610047,-0.000307599120922,0.18246441633,3.7262888339e-07,6.47910279102e-06,-0.00447768175347,0.999989975112
25906000000,2557,25883000000,world,-0.000387887604541,-0.000307387677763,0.182465918573,-1.30372702671e-07,1.00846994031e-07,-0.00447865450345,0.999989970777
25906000000,2558,25893000000,world,-0.000388749709786,-0.000308401836189,0.182465926101,2.67192574976e-06,-2.21180644374e-06,-0.00447941702025,0.999989967355
25906000000,2559,25903000000,world,-0.000385605737154,-0.00030761287685,0.182464416333,3.72644663145e-07,6.47909873205e-06,-0.00448034223433,0.999989963195
25949000000,2560,25913000000,world,-0.000387945728938,-0.000307401423447,0.182465918573,-1.30364564871e-07,1.00846608705e-07,-0.00448131495103,0.999989958858
25949000000,2561,25923000000,world,-0.000388807839585,-0.000308415574359,0.182465926101,2.67192229855e-06,-2.21181556474e-06,-0.00448207744936,0.999989955434
25949000000,2562,25933000000,world,-0.000385663862213,-0.000307626629005,0.182464416336,3.7266044236e-07,6.47909467263e-06,-0.00448300263011,0.999989951272
25949000000,2563,25943000000,world,-0.000388003851288,-0.000307415165358,0.182465918573,-1.30356427417e-07,1.00846223586e-07,-0.00448397531353,0.999989946932
25954000000,2564,25953000000,world,-0.000388865967335,-0.000308429308757,0.182465926101,2.67191884737e-06,-2.21182468541e-06,-0.00448473779339,0.999989943507
25964000000,2565,25963000000,world,-0.000385721985225,-0.000307640377388,0.182464416338,3.72676221139e-07,6.47909061331e-06,-0.0044856629408,0.999989939342
26005000000,2566,25973000000,world,-0.000388061971589,-0.000307428903497,0.182465918573,-1.30348290372e-07,1.00845838437e-07,-0.00448663559095,0.999989935
26005000000,2567,25983000000,world,-0.000388924093037,-0.000308443039382,0.182465926101,2.67191539611e-06,-2.21183380565e-06,-0.00448739805234,0.999989931573
26005000000,2568,25993000000,world,-0.000385780106188,-0.000307654121997,0.182464416341,3.72691999399e-07,6.47908655376e-06,-0.00448832316642,0.999989927406
26006000000,2569,26003000000,world,-0.000388120089843,-0.000307442637864,0.182465918573,-1.30340153721e-07,1.00845453374e-07,-0.00448929578329,0.999989923061
26047000000,2570,26013000000,world,-0.000388982216691,-0.000308456766235,0.182465926101,2.67191194493e-06,-2.2118429256e-06,-0.00449005822621,0.999989919632
26047000000,2571,26023000000,world,-0.000385838225104,-0.000307667862835,0.182464416344,3.7270777706e-07,6.47908249414e-06,-0.00449098330696,0.999989915463
26047000000,2572,26033000000,world,-0.000388178206049,-0.00030745636846,0.182465918573,-1.30332017256e-07,1.00845068353e-07,-0.00449195589056,0.999989911115
26047000000,2573,26043000000,world,-0.000389040338297,-0.000308470489318,0.182465926101,2.67190849372e-06,-2.21185204517e-06,-0.00449271831501,0.999989907684
26086000000,2574,26053000000,world,-0.000385896341973,-0.000307681599902,0.182464416347,3.72723554286e-07,6.47907843435e-06,-0.00449364336243,0.999989903513
26086000000,2575,26063000000,world,-0.000388236320207,-0.000307470095284,0.182465918573,-1.30323881078e-07,1.00844683337e-07,-0.00449461591277,0.999989899163
26086000000,2576,26073000000,world,-0.000389098457855,-0.000308484208629,0.182465926101,2.67190504242e-06,-2.21186116429e-06,-0.00449537831874,0.99998989573
26086000000,2577,26083000000,world,-0.000385954456794,-0.000307695333197,0.182464416349,3.72739331056e-07,6.47907437441e-06,-0.00449630333284,0.999989891556
26131000000,2578,26093000000,world,-0.000388294432318,-0.000307483818339,0.182465918573,-1.30315745442e-07,1.00844298426e-07,-0.0044972758499,0.999989887204
26131000000,2579,26103000000,world,-0.000389156575366,-0.000308497924171,0.182465926101,2.67190159121e-06,-2.21187028317e-06,-0.0044980382374,0.999989883769
26131000000,2580,26113000000,world,-0.000386012569567,-0.000307709062722,0.182464416352,3.72755107216e-07,6.47907031426e-06,-0.00449896321817,0.999989879593
26131000000,2581,26123000000,world,-0.000388352542382,-0.000307497537623,0.182465918573,-1.3030761e-07,1.00843913603e-07,-0.00449993570197,0.999989875238
26173000000,2582,26133000000,world,-0.000389214690829,-0.000308511635943,0.182465926101,2.67189813982e-06,-2.21187940151e-06,-0.00450069807101,0.999989871801
26173000000,2583,26143000000,world,-0.000386070680294,-0.000307722788478,0.182464416355,3.72770882888e-07,6.47906625394e-06,-0.00450162301845,0.999989867623
26173000000,2584,26153000000,world,-0.000388410650399,-0.000307511253138,0.182465918573,-1.30299474824e-07,1.0084352883e-07,-0.00450259546898,0.999989863266
26173000000,2585,26163000000,world,-0.000389272804245,-0.000308525343946,0.182465926101,2.67189468864e-06,-2.21188851962e-06,-0.00450335781955,0.999989859827
26173000000,2586,26173000000,world,-0.000386128788974,-0.000307736510464,0.182464416357,3.72786658101e-07,6.47906219366e-06,-0.00450428273367,0.999989855646
26210000000,2587,26183000000,world,-0.000388468756369,-0.000307524964885,0.182465918573,-1.30291340189e-07,1.00843144019e-07,-0.00450525515094,0.999989851287
26210000000,2588,26193000000,world,-0.000389330915614,-0.000308539048181,0.182465926101,2.67189123733e-06,-2.21189763729e-06,-0.00450601748303,0.999989847846
26210000000,2589,26203000000,world,-0.000386186895607,-0.000307750228682,0.18246441636,3.72802432767e-07,6.4790581331e-06,-0.00450694236383,0.999989843663
26214000000,2590,26213000000,world,-0.000388526860291,-0.000307538672863,0.182465918573,-1.30283205761e-07,1.00842759362e-07,-0.00450791474783,0.999989839301
26223000000,2591,26223000000,world,-0.000389389024936,-0.000308552748648,0.182465926101,2.67188778609e-06,-2.21190675466e-06,-0.00450867706146,0.999989835858
26259000000,2592,26233000000,world,-0.000386245000193,-0.000307763943131,0.182464416363,3.72818207007e-07,6.47905407242e-06,-0.00450960190894,0.999989831673
26259000000,2593,26243000000,world,-0.000388584962168,-0.000307552377074,0.182465918574,-1.30275071747e-07,1.00842374728e-07,-0.00451057425968,0.999989827308
26259000000,2594,26253000000,world,-0.000389447132211,-0.000308566445347,0.182465926101,2.67188433472e-06,-2.21191587153e-06,-0.00451133655484,0.999989823863
26298000000,2595,26263000000,world,-0.000386303102733,-0.000307777653813,0.182464416366,3.72833980552e-07,6.47905001154e-06,-0.004512261369,0.999989819676
26298000000,2596,26273000000,world,-0.000388643061997,-0.000307566077518,0.182465918574,-1.30266938033e-07,1.00841990141e-07,-0.00451323368648,0.999989815309
26298000000,2597,26283000000,world,-0.000389505237439,-0.00030858013828,0.182465926101,2.67188088333e-06,-2.21192498811e-06,-0.00451399596318,0.999989811862
26298000000,2598,26293000000,world,-0.000386361203227,-0.000307791360728,0.182464416368,3.72849753841e-07,6.47904595074e-06,-0.00451492074402,0.999989807672
26334000000,2599,26303000000,world,-0.000388701159781,-0.000307579774195,0.182465918574,-1.30258804673e-07,1.00841605599e-07,-0.00451589302824,0.999989803303
26335000000,2600,26313000000,world,-0.000389563340621,-0.000308593827446,0.182465926101,2.67187743199e-06,-2.21193410428e-06,-0.00451665528647,0.999989799854
26335000000,2601,26323000000,world,-0.000386419301674,-0.000307805063877,0.182464416371,3.72865526383e-07,6.47904188953e-06,-0.00451758003399,0.999989795662
26335000000,2602,26333000000,world,-0.000388759255518,-0.000307593467106,0.182465918574,-1.30250671582e-07,1.00841221165e-07,-0.00451855228495,0.999989791291
26343000000,2603,26343000000,world,-0.000389621441756,-0.000308607512847,0.182465926101,2.67187398063e-06,-2.21194322007e-06,-0.00451931452472,0.99998978784
26381000000,2604,26353000000,world,-0.000386477398075,-0.000307818763259,0.182464416374,3.72881298545e-07,6.47903782836e-06,-0.00452023923892,0.999989783645
26381000000,2605,26363000000,world,-0.000388817349209,-0.000307607156252,0.182465918574,-1.30242538946e-07,1.00840836618e-07,-0.00452121145663,0.999989779271
26381000000,2606,26373000000,world,-0.000389679540845,-0.000308621194483,0.182465926101,2.67187052937e-06,-2.21195233565e-06,-0.00452197367793,0.999989775819
26417000000,2607,26383000000,world,-0.000386535492431,-0.000307832458877,0.182464416376,3.72897070235e-07,6.47903376698e-06,-0.00452289835882,0.999989771622
26417000000,2608,26393000000,world,-0.000388875440854,-0.000307620841633,0.182465918574,-1.30234406686e-07,1.00840452324e-07,-0.00452387054327,0.999989767245
26417000000,2609,26403000000,world,-0.000389737637888,-0.000308634872354,0.182465926101,2.67186707799e-06,-2.21196145069e-06,-0.0045246327461,0.999989763791
26417000000,2610,26413000000,world,-0.00038659358474,-0.000307846150729,0.182464416379,3.72912841221e-07,6.47902970544e-06,-0.00452555739368,0.999989759592
26456000000,2611,26423000000,world,-0.000388933530454,-0.00030763452325,0.182465918574,-1.30226274731e-07,1.00840068022e-07,-0.00452652954488,0.999989755213
26456000000,2612,26433000000,world,-0.000389795732885,-0.000308648546461,0.182465926101,2.67186362659e-06,-2.21197056545e-06,-0.00452729172925,0.999989751756
26456000000,2613,26443000000,world,-0.000386651675004,-0.000307859838817,0.182464416382,3.72928611858e-07,6.47902564379e-06,-0.00452821634352,0.999989747555
26456000000,2614,26453000000,world,-0.000388991618008,-0.000307648201103,0.182465918574,-1.30218142909e-07,1.00839683732e-07,-0.00452918846146,0.999989743173
26497000000,2615,26463000000,world,-0.000389853825836,-0.000308662216805,0.182465926101,2.67186017524e-06,-2.2119796798e-06,-0.00452995062737,0.999989739715
26497000000,2616,26473000000,world,-0.000386709763222,-0.000307873523142,0.182464416385,3.72944381891e-07,6.47902158208e-06,-0.00453087520832,0.999989735511
26497000000,2617,26483000000,world,-0.000389049703516,-0.000307661875192,0.182465918574,-1.30210011568e-07,1.00839299497e-07,-0.00453184729302,0.999989731127
26497000000,2618,26493000000,world,-0.000389911916741,-0.000308675883386,0.182465926101,2.67185672382e-06,-2.21198879376e-06,-0.00453260944046,0.999989727667
26539000000,2619,26503000000,world,-0.000386767849396,-0.000307887203703,0.182464416387,3.72960151614e-07,6.47901751999e-06,-0.00453353398811,0.999989723461
26539000000,2620,26513000000,world,-0.000389107786979,-0.000307675545519,0.182465918574,-1.30201880475e-07,1.00838915365e-07,-0.00453450603955,0.999989719075
26539000000,2621,26523000000,world,-0.0003899700056,-0.000308689546204,0.182465926101,2.67185327244e-06,-2.21199790736e-06,-0.00453526816853,0.999989715612
26539000000,2622,26533000000,world,-0.000386825933524,-0.000307900880501,0.18246441639,3.7297592063e-07,6.47901345777e-06,-0.00453619268287,0.999989711404
26579000000,2623,26543000000,world,-0.000389165868396,-0.000307689212084,0.182465918574,-1.30193750025e-07,1.00838531224e-07,-0.00453716470107,0.999989707015
26580000000,2624,26553000000,world,-0.000390028092415,-0.00030870320526,0.182465926101,2.67184982109e-06,-2.2120070207e-06,-0.00453792681158,0.999989703551
26580000000,2625,26563000000,world,-0.000386884015606,-0.000307914553538,0.182464416393,3.72991689173e-07,6.4790093957e-06,-0.00453885129262,0.99998969934
26580000000,2626,26573000000,world,-0.000389223947769,-0.000307702874887,0.182465918574,-1.3018561964e-07,1.00838147192e-07,-0.00453982327756,0.999989694949
26611000000,2627,26583000000,world,-0.000390086177184,-0.000308716860555,0.182465926101,2.67184636973e-06,-2.21201613363e-06,-0.00454058536962,0.999989691483
26611000000,2628,26593000000,world,-0.000386942095644,-0.000307928222812,0.182464416395,3.73007457263e-07,6.47900533334e-06,-0.00454150981735,0.99998968727
26611000000,2629,26603000000,world,-0.000389282025097,-0.000307716533929,0.182465918574,-1.30177489625e-07,1.00837763285e-07,-0.00454248176905,0.999989682876
26616000000,2630,26613000000,world,-0.000390144259907,-0.000308730512089,0.182465926101,2.67184291831e-06,-2.21202524614e-06,-0.00454324384264,0.999989679408
26624000000,2631,26623000000,world,-0.000387000173637,-0.000307941888326,0.182464416398,3.73023224883e-07,6.47900127082e-06,-0.00454416825707,0.999989675193
26659000000,2632,26633000000,world,-0.000389340100379,-0.000307730189211,0.182465918574,-1.30169360048e-07,1.00837379257e-07,-0.00454514017552,0.999989670797
26659000000,2633,26643000000,world,-0.000390202340586,-0.000308744159863,0.182465926101,2.6718394668e-06,-2.21203435822e-06,-0.00454590223065,0.999989667327
26659000000,2634,26653000000,world,-0.000387058249586,-0.000307955550079,0.182464416401,3.73038991814e-07,6.47899720814e-06,-0.00454682661178,0.999989663109
26703000000,2635,26663000000,world,-0.000389398173618,-0.000307743840732,0.182465918575,-1.30161230675e-07,1.00836995426e-07,-0.00454779849699,0.999989658711
26703000000,2636,26673000000,world,-0.00039026041922,-0.000308757803877,0.182465926101,2.67183601539e-06,-2.21204347002e-06,-0.00454856053366,0.999989655239
26703000000,2637,26683000000,world,-0.00038711632349,-0.000307969208072,0.182464416404,3.73054758334e-07,6.47899314543e-06,-0.00454948488149,0.999989651019
26703000000,2638,26693000000,world,-0.000389456244811,-0.000307757488494,0.182465918575,-1.30153101866e-07,1.00836611539e-07,-0.00455045673346,0.999989646618
26736000000,2639,26703000000,world,-0.000390318495809,-0.000308771444132,0.182465926101,2.67183256388e-06,-2.2120525814e-06,-0.00455121875167,0.999989643144
26736000000,2640,26713000000,world,-0.000387174395349,-0.000307982862306,0.182464416406,3.73070524358e-07,6.4789890825e-06,-0.00455214306619,0.999989638922
26736000000,2641,26723000000,world,-0.000389514313961,-0.000307771132497,0.182465918575,-1.30144973178e-07,1.0083622779e-07,-0.00455311488492,0.999989634519
26736000000,2642,26733000000,world,-0.000390376570354,-0.000308785080628,0.182465926101,2.67182911244e-06,-2.21206169244e-06,-0.00455387688467,0.999989631043
26774000000,2643,26743000000,world,-0.000387232465165,-0.000307996512781,0.182464416409,3.73086289979e-07,6.47898501927e-06,-0.0045548011659,0.999989626818
26774000000,2644,26753000000,world,-0.000389572381066,-0.000307784772742,0.182465918575,-1.30136844863e-07,1.00835844061e-07,-0.00455577295139,0.999989622413
26774000000,2645,26763000000,world,-0.000390434642854,-0.000308798713366,0.182465926101,2.67182566105e-06,-2.21207080316e-06,-0.00455653493268,0.999989618935
26775000000,2646,26773000000,world,-0.000387290532936,-0.000308010159498,0.182464416412,3.7310205496e-07,6.47898095624e-06,-0.00455745918061,0.999989614708
26817000000,2647,26783000000,world,-0.000389630446127,-0.000307798409228,0.182465918575,-1.30128716837e-07,1.00835460385e-07,-0.00455843093286,0.9999896103
26817000000,2648,26793000000,world,-0.00039049271331,-0.000308812342346,0.182465926101,2.67182220951e-06,-2.21207991346e-06,-0.0045591928957,0.99998960682
26817000000,2649,26803000000,world,-0.000387348598663,-0.000308023802456,0.182464416414,3.73117819381e-07,6.47897689282e-06,-0.00456011711033,0.999989602591
26817000000,2650,26813000000,world,-0.000389688509144,-0.000307812041958,0.182465918575,-1.3012058935e-07,1.00835076769e-07,-0.00456108882934,0.99998959818
26854000000,2651,26823000000,world,-0.000390550781722,-0.00030882596757,0.182465926101,2.67181875802e-06,-2.21208902336e-06,-0.00456185077372,0.999989594699
26855000000,2652,26833000000,world,-0.000387406662347,-0.000308037441658,0.182464416417,3.73133583413e-07,6.47897282925e-06,-0.00456277495506,0.999989590467
26855000000,2653,26843000000,world,-0.000389746570117,-0.00030782567093,0.182465918575,-1.30112461985e-07,1.0083469323e-07,-0.00456374664084,0.999989586054
26855000000,2654,26853000000,world,-0.000390608848089,-0.000308839589037,0.182465926101,2.6718153065e-06,-2.21209813288e-06,-0.00456450856676,0.99998958257
26895000000,2655,26863000000,world,-0.000387464723987,-0.000308051077102,0.18246441642,3.73149346843e-07,6.47896876561e-06,-0.00456543271481,0.999989578337
26895000000,2656,26873000000,world,-0.000389804629046,-0.000307839296147,0.182465918575,-1.30104335183e-07,1.00834309683e-07,-0.00456640436735,0.999989573921
26895000000,2657,26883000000,world,-0.000390666912413,-0.000308853206748,0.182465926101,2.67181185507e-06,-2.21210724218e-06,-0.00456716627482,0.999989570436
26895000000,2658,26893000000,world,-0.000387522783583,-0.00030806470879,0.182464416423,3.73165109788e-07,6.47896470184e-06,-0.00456809038957,0.9999895662
26937000000,2659,26903000000,world,-0.000389862685932,-0.000307852917607,0.182465918575,-1.30096208399e-07,1.00833926238e-07,-0.00456906200888,0.999989561782
26937000000,2660,26913000000,world,-0.000390724974693,-0.000308866820703,0.182465926101,2.67180840354e-06,-2.21211635095e-06,-0.00456982389789,0.999989558294
26937000000,2661,26923000000,world,-0.000387580841136,-0.000308078336723,0.182464416425,3.73180872342e-07,6.47896063796e-06,-0.00457074797935,0.999989554056
26937000000,2662,26933000000,world,-0.000389920740775,-0.000307866535313,0.182465918575,-1.30088082179e-07,1.00833542853e-07,-0.00457171956543,0.999989549635
26978000000,2663,26943000000,world,-0.00039078303493,-0.000308880430904,0.182465926101,2.67180495204e-06,-2.21212545946e-06,-0.00457248143599,0.999989546146
26978000000,2664,26953000000,world,-0.000387638896646,-0.000308091960901,0.182464416428,3.73196634253e-07,6.47895657389e-06,-0.00457340548416,0.999989541905
26978000000,2665,26963000000,world,-0.000389978793574,-0.000307880149264,0.182465918575,-1.30079956274e-07,1.008331595e-07,-0.00457437703701,0.999989537483
26979000000,2666,26973000000,world,-0.000390841093123,-0.00030889403735,0.182465926101,2.67180150056e-06,-2.21213456758e-06,-0.00457513888911,0.999989533991
27017000000,2667,26983000000,world,-0.000387696950113,-0.000308105581324,0.182464416431,3.73212395738e-07,6.47895250972e-06,-0.00457606290399,0.999989529748
27017000000,2668,26993000000,world,-0.00039003684433,-0.00030789375946,0.182465918575,-1.30071830813e-07,1.00832776157e-07,-0.00457703442361,0.999989525323
27017000000,2669,27003000000,world,-0.000390899149273,-0.000308907640042,0.182465926101,2.67179804904e-06,-2.21214367531e-06,-0.00457779625725,0.99998952183
27017000000,2670,27013000000,world,-0.000387755001537,-0.000308119197993,0.182464416433,3.73228156718e-07,6.47894844531e-06,-0.00457872023885,0.999989517584
27059000000,2671,27023000000,world,-0.000390094893044,-0.000307907365904,0.182465918575,-1.30063705512e-07,1.00832392913e-07,-0.00457969172524,0.999989513157
27059000000,2672,27033000000,world,-0.000390957203379,-0.000308921238981,0.182465926101,2.67179459749e-06,-2.21215278268e-06,-0.00458045354044,0.999989509662
27059000000,2673,27043000000,world,-0.000387813050917,-0.000308132810908,0.182464416436,3.732439171e-07,6.47894438092e-06,-0.00458137748874,0.999989505414
27060000000,2674,27053000000,world,-0.000390152939714,-0.000307920968594,0.182465918575,-1.30055580553e-07,1.00832009694e-07,-0.00458234894191,0.999989500984
27096000000,2675,27063000000,world,-0.000391015255443,-0.000308934834168,0.182465926101,2.67179114595e-06,-2.21216188965e-06,-0.00458311073865,0.999989497487
27096000000,2676,27073000000,world,-0.000387871098256,-0.00030814642007,0.182464416439,3.73259677015e-07,6.47894031611e-06,-0.00458403465367,0.999989493237
27096000000,2677,27083000000,world,-0.000390210984342,-0.000307934567531,0.182465918576,-1.30047455985e-07,1.0083162663e-07,-0.00458500607362,0.999989488804
27096000000,2678,27093000000,world,-0.000391073305463,-0.000308948425602,0.182465926101,2.67178769433e-06,-2.2121709962e-06,-0.0045857678519,0.999989485305
27135000000,2679,27103000000,world,-0.000387929143552,-0.00030816002548,0.182464416441,3.73275436347e-07,6.47893625133e-06,-0.00458669173365,0.999989481053
27135000000,2680,27113000000,world,-0.000390269026927,-0.000307948162717,0.182465918576,-1.30039331829e-07,1.0083124358e-07,-0.00458766312036,0.999989476618
27135000000,2681,27123000000,world,-0.000391131353441,-0.000308962013284,0.182465926101,2.67178424281e-06,-2.2121801025e-06,-0.0045884248802,0.999989473117
27136000000,2682,27133000000,world,-0.000387987186805,-0.000308173627138,0.182464416444,3.73291195279e-07,6.47893218651e-06,-0.00458934872866,0.999989468863
27174000000,2683,27143000000,world,-0.00039032706747,-0.000307961754151,0.182465918576,-1.30031207921e-07,1.0083086048e-07,-0.00459032008215,0.999989464425
27177000000,2684,27153000000,world,-0.000391189399376,-0.000308975597215,0.182465926101,2.67178079123e-06,-2.21218920842e-06,-0.00459108182354,0.999989460922
27177000000,2685,27163000000,world,-0.000388045228016,-0.000308187225045,0.182464416447,3.73306953662e-07,6.47892812146e-06,-0.00459200563872,0.999989456665
27177000000,2686,27173000000,world,-0.000390385105971,-0.000307975341835,0.182465918576,-1.30023084426e-07,1.0083047749e-07,-0.00459297695899,0.999989452226
27214000000,2687,27183000000,world,-0.000391247443269,-0.000308989177396,0.182465926101,2.67177733967e-06,-2.21219831395e-06,-0.00459373868192,0.999989448721
27214000000,2688,27193000000,world,-0.000388103267185,-0.0003082008192,0.18246441645,3.73322711573e-07,6.47892405638e-06,-0.00459466246382,0.999989444462
27214000000,2689,27203000000,world,-0.000390443142429,-0.000307988925768,0.182465918576,-1.30014961126e-07,1.00830094567e-07,-0.00459563375088,0.999989440019
27214000000,2690,27213000000,world,-0.00039130548512,-0.000309002753827,0.182465926101,2.67177388811e-06,-2.21220741913e-06,-0.00459639545536,0.999989436513
27254000000,2691,27223000000,world,-0.000388161304312,-0.000308214409606,0.182464416452,3.73338468915e-07,6.47891999105e-06,-0.00459731920398,0.999989432251
27255000000,2692,27233000000,world,-0.000390501176846,-0.000308002505951,0.182465918576,-1.30006838341e-07,1.00829711691e-07,-0.00459829045782,0.999989427807
27255000000,2693,27243000000,world,-0.000391363524928,-0.000309016326508,0.182465926101,2.67177043652e-06,-2.21221652386e-06,-0.00459905214385,0.999989424298
27255000000,2694,27253000000,world,-0.000388219339397,-0.000308227996262,0.182464416455,3.7335422581e-07,6.47891592555e-06,-0.0045999758592,0.999989420034
27293000000,2695,27263000000,world,-0.00039055920922,-0.000308016082385,0.182465918576,-1.29998715647e-07,1.00829328942e-07,-0.00460094707982,0.999989415587
27293000000,2696,27273000000,world,-0.000391421562694,-0.00030902989544,0.182465926101,2.67176698487e-06,-2.21222562824e-06,-0.0046017087474,0.999989412076
27293000000,2697,27283000000,world,-0.000388277372441,-0.000308241579168,0.182464416458,3.73369982177e-07,6.47891185977e-06,-0.00460263242947,0.99998940781
27293000000,2698,27293000000,world,-0.000390617239553,-0.00030802965507,0.182465918576,-1.29990593529e-07,1.00828946156e-07,-0.00460360361687,0.999989403361
27334000000,2699,27303000000,world,-0.000391479598419,-0.000309043460623,0.182465926101,2.67176353316e-06,-2.21223473224e-06,-0.004604365266,0.999989399848
27334000000,2700,27313000000,world,-0.000388335403443,-0.000308255158326,0.18246441646,3.73385738031e-07,6.47890779408e-06,-0.0046052889148,0.99998939558
27334000000,2701,27323000000,world,-0.000390675267845,-0.000308043224007,0.182465918576,-1.29982471524e-07,1.00828563485e-07,-0.00460626006899,0.999989391128
27334000000,2702,27333000000,world,-0.000391537632101,-0.000309057022059,0.182465926101,2.67176008162e-06,-2.21224383598e-06,-0.00460702169968,0.999989387613
27375000000,2703,27343000000,world,-0.000388393432404,-0.000308268733735,0.182464416463,3.73401493411e-07,6.47890372813e-06,-0.0046079453152,0.999989383343
27375000000,2704,27353000000,world,-0.000390733294095,-0.000308056789197,0.182465918576,-1.29974349959e-07,1.00828180799e-07,-0.00460891643618,0.999989378888
27376000000,2705,27363000000,world,-0.000391595663742,-0.000309070579747,0.182465926101,2.67175663004e-06,-2.21225293932e-06,-0.00460967804841,0.999989375372
27376000000,2706,27373000000,world,-0.000388451459323,-0.000308282305397,0.182464416466,3.73417248184e-07,6.47889966224e-06,-0.00461060163066,0.999989371099
27416000000,2707,27383000000,world,-0.000390791318304,-0.000308070350639,0.182465918576,-1.29966228688e-07,1.00827798149e-07,-0.00461157271843,0.999989366642
27416000000,2708,27393000000,world,-0.000391653693342,-0.000309084133689,0.182465926101,2.67175317847e-06,-2.21226204233e-06,-0.00461233431222,0.999989363124
27416000000,2709,27403000000,world,-0.000388509484202,-0.000308295873312,0.182464416469,3.73433002524e-07,6.47889559589e-06,-0.0046132578612,0.999989358848
27416000000,2710,27413000000,world,-0.000390849340471,-0.000308083908335,0.182465918576,-1.29958107798e-07,1.00827415618e-07,-0.00461422891576,0.999989354389
27453000000,2711,27423000000,world,-0.0003917117209,-0.000309097683884,0.182465926101,2.67174972679e-06,-2.21227114486e-06,-0.0046149904911,0.999989350869
27453000000,2712,27433000000,world,-0.000388567507039,-0.000308309437481,0.182464416471,3.73448756357e-07,6.47889152959e-06,-0.00461591400681,0.999989346591
27454000000,2713,27443000000,world,-0.000390907360598,-0.000308097462285,0.182465918576,-1.29949987135e-07,1.00827033082e-07,-0.00461688502816,0.99998934213
27454000000,2714,27453000000,world,-0.000391769746417,-0.000309111230334,0.182465926101,2.67174627517e-06,-2.2122802471e-06,-0.00461764658505,0.999989338607
27492000000,2715,27463000000,world,-0.000388625527836,-0.000308322997904,0.182464416474,3.7346450972e-07,6.4788874632e-06,-0.0046185700675,0.999989334327
27492000000,2716,27473000000,world,-0.000390965378684,-0.00030811101249,0.182465918576,-1.29941867014e-07,1.00826650639e-07,-0.00461954105564,0.999989329863
27492000000,2717,27483000000,world,-0.000391827769893,-0.000309124773039,0.182465926101,2.6717428235e-06,-2.21228934889e-06,-0.00462030259409,0.999989326339
27493000000,2718,27493000000,world,-0.000388683546592,-0.000308336554581,0.182464416477,3.73480262453e-07,6.47888339669e-06,-0.00462122604327,0.999989322057
27504000000,2719,27503000000,world,-0.000391023394729,-0.00030812455895,0.182465918577,-1.29933746889e-07,1.00826268265e-07,-0.0046221969982,0.99998931759
27546000000,2720,27513000000,world,-0.000391885791329,-0.000309138311999,0.182465926101,2.67173937184e-06,-2.21229845039e-06,-0.00462295851821,0.999989314064
27546000000,2721,27523000000,world,-0.000388741563307,-0.000308350107513,0.182464416479,3.73496014816e-07,6.47887932981e-06,-0.00462388193412,0.99998930978
27546000000,2722,27533000000,world,-0.000391081408734,-0.000308138101665,0.182465918577,-1.299256273e-07,1.00825885868e-07,-0.00462485285585,0.999989305311
27546000000,2723,27543000000,world,-0.000391943810723,-0.000309151847215,0.182465926101,2.67173592026e-06,-2.21230755157e-06,-0.00462561435741,0.999989301783
27588000000,2724,27553000000,world,-0.000388799577982,-0.000308363656701,0.182464416482,3.73511766544e-07,6.478875263e-06,-0.00462653774006,0.999989297496
27588000000,2725,27563000000,world,-0.000391139420698,-0.000308151640636,0.182465918577,-1.29917507994e-07,1.00825503556e-07,-0.00462750862859,0.999989293025
27588000000,2726,27573000000,world,-0.000392001828077,-0.000309165378687,0.182465926101,2.67173246859e-06,-2.21231665233e-06,-0.0046282701117,0.999989289495
27588000000,2727,27583000000,world,-0.000388857590617,-0.000308377202146,0.182464416485,3.73527517834e-07,6.47887119585e-06,-0.00462919346109,0.999989285205
27627000000,2728,27593000000,world,-0.000391197430623,-0.000308165175865,0.182465918577,-1.29909389044e-07,1.00825121384e-07,-0.00463016431641,0.999989280732
27627000000,2729,27603000000,world,-0.00039205984339,-0.000309178906416,0.182465926101,2.67172901682e-06,-2.21232575265e-06,-0.00463092578108,0.9999892772
27627000000,2730,27613000000,world,-0.000388915601212,-0.000308390743847,0.182464416488,3.73543268637e-07,6.47886712868e-06,-0.00463184909721,0.999989272908
27627000000,2731,27623000000,world,-0.000391255438507,-0.00030817870735,0.182465918577,-1.29901270469e-07,1.00824739157e-07,-0.00463281991933,0.999989268432
27666000000,2732,27633000000,world,-0.000392117856664,-0.000309192430403,0.182465926101,2.6717255652e-06,-2.21233485274e-06,-0.00463358136556,0.999989264898
27666000000,2733,27643000000,world,-0.000388973609767,-0.000308404281805,0.18246441649,3.73559018884e-07,6.47886306132e-06,-0.00463450464843,0.999989260605
27666000000,2734,27653000000,world,-0.000391313444351,-0.000308192235093,0.182465918577,-1.29893152199e-07,1.00824357033e-07,-0.00463547543735,0.999989256126
27666000000,2735,27663000000,world,-0.000392175867897,-0.000309205950648,0.182465926101,2.67172211347e-06,-2.21234395229e-06,-0.00463623686514,0.99998925259
27702000000,2736,27673000000,world,-0.000389031616282,-0.000308417816021,0.182464416493,3.73574768591e-07,6.47885899396e-06,-0.00463716011475,0.999989248294
27702000000,2737,27683000000,world,-0.000391371448155,-0.000308205759095,0.182465918577,-1.29885034349e-07,1.00823974978e-07,-0.00463813087047,0.999989243813
27702000000,2738,27693000000,world,-0.000392233877089,-0.000309219467151,0.182465926101,2.67171866179e-06,-2.21235305164e-06,-0.00463889227982,0.999989240275
27703000000,2739,27703000000,world,-0.000389089620757,-0.000308431346496,0.182464416496,3.73590517902e-07,6.47885492638e-06,-0.00463981549617,0.999989235977
27713000000,2740,27713000000,world,-0.00039142944992,-0.000308219279355,0.182465918577,-1.29876916759e-07,1.00823592955e-07,-0.0046407862187,0.999989231494
27751000000,2741,27723000000,world,-0.000392291884243,-0.000309232979914,0.182465926101,2.67171520997e-06,-2.21236215046e-06,-0.0046415476096,0.999989227954
27751000000,2742,27733000000,world,-0.000389147623193,-0.000308444873229,0.182464416498,3.73606266601e-07,6.47885085871e-06,-0.00464247079269,0.999989223653
27751000000,2743,27743000000,world,-0.000391487449645,-0.000308232795875,0.182465918577,-1.29868799619e-07,1.00823210987e-07,-0.00464344148203,0.999989219167
27790000000,2744,27753000000,world,-0.000392349889356,-0.000309246488936,0.182465926101,2.67171175838e-06,-2.21237124905e-06,-0.00464420285449,0.999989215626
27790000000,2745,27763000000,world,-0.000389205623589,-0.000308458396222,0.182464416501,3.73622014815e-07,6.47884679077e-06,-0.00464512600433,0.999989211323
27790000000,2746,27773000000,world,-0.00039154544733,-0.000308246308655,0.182465918577,-1.2986068301e-07,1.00822829095e-07,-0.00464609666047,0.999989206835
27791000000,2747,27783000000,world,-0.00039240789243,-0.000309259994219,0.182465926101,2.67170830666e-06,-2.21238034727e-06,-0.00464685801449,0.999989203291
27830000000,2748,27793000000,world,-0.000389263621947,-0.000308471915475,0.182464416504,3.73637762681e-07,6.47884272284e-06,-0.00464778113108,0.999989198986
27830000000,2749,27803000000,world,-0.000391603442977,-0.000308259817695,0.182465918577,-1.29852566627e-07,1.00822447303e-07,-0.00464875175403,0.999989194495
27830000000,2750,27813000000,world,-0.000392465893464,-0.000309273495762,0.182465926101,2.67170485499e-06,-2.21238944509e-06,-0.0046495130896,0.99998919095
27830000000,2751,27823000000,world,-0.000389321618265,-0.000308485430988,0.182464416507,3.73653509861e-07,6.47883865464e-06,-0.00465043617294,0.999989186642
27874000000,2752,27833000000,world,-0.000391661436584,-0.000308273322997,0.182465918577,-1.29844450761e-07,1.00822065508e-07,-0.0046514067627,0.999989182149
27874000000,2753,27843000000,world,-0.000392523892459,-0.000309286993567,0.182465926101,2.67170140325e-06,-2.21239854255e-06,-0.00465216807984,0.999989178602
27874000000,2754,27853000000,world,-0.000389379612544,-0.000308498942763,0.182464416509,3.73669256542e-07,6.47883458631e-06,-0.00465309112992,0.999989174292
27874000000,2755,27863000000,world,-0.000391719428153,-0.00030828682456,0.182465918577,-1.29836334912e-07,1.00821683787e-07,-0.00465406168649,0.999989169796
27874000000,2756,27873000000,world,-0.000392581889415,-0.000309300487634,0.182465926101,2.67169795155e-06,-2.21240763968e-06,-0.00465482298519,0.999989166247
27915000000,2757,27883000000,world,-0.000389437604785,-0.000308512450799,0.182464416512,3.73685002745e-07,6.47883051793e-06,-0.00465574600202,0.999989161935
27915000000,2758,27893000000,world,-0.000391777417682,-0.000308300322385,0.182465918577,-1.29828219721e-07,1.0082130211e-07,-0.0046567165254,0.999989157437
27915000000,2759,27903000000,world,-0.000392639884332,-0.000309313977963,0.182465926101,2.67169449987e-06,-2.21241673644e-06,-0.00465747780567,0.999989153885
27915000000,2760,27913000000,world,-0.000389495594986,-0.000308525955098,0.182464416515,3.73700748464e-07,6.47882644926e-06,-0.00465840078925,0.999989149571
27924000000,2761,27923000000,world,-0.000391835405173,-0.000308313816473,0.182465918577,-1.29820104742e-07,1.00820920449e-07,-0.00465937127945,0.999989145071
27933000000,2762,27933000000,world,-0.00039269787721,-0.000309327464555,0.182465926101,2.67169104816e-06,-2.21242583277e-06,-0.00466013254127,0.999989141517
27969000000,2763,27943000000,world,-0.00038955358315,-0.000308539455659,0.182464416517,3.73716493672e-07,6.47882238061e-06,-0.00466105549161,0.999989137201
27970000000,2764,27953000000,world,-0.000391893390626,-0.000308327306824,0.182465918578,-1.29811990068e-07,1.00820538955e-07,-0.00466202594862,0.999989132698
27970000000,2765,27963000000,world,-0.000392755868049,-0.000309340947411,0.182465926101,2.67168759642e-06,-2.21243492879e-06,-0.004662787192,0.999989129143
28009000000,2766,27973000000,world,-0.000389611569275,-0.000308552952483,0.18246441652,3.73732238261e-07,6.4788183118e-06,-0.0046637101091,0.999989124824
28009000000,2767,27983000000,world,-0.00039195137404,-0.000308340793439,0.182465918578,-1.29803875616e-07,1.00820157477e-07,-0.00466468053292,0.999989120319
28009000000,2768,27993000000,world,-0.00039281385685,-0.00030935442653,0.182465926101,2.6716841447e-06,-2.21244402444e-06,-0.00466544175787,0.999989116761
28009000000,2769,28003000000,world,-0.000389669553361,-0.000308566445571,0.182464416523,3.73747982594e-07,6.47881424275e-06,-0.00466636464172,0.99998911244
28047000000,2770,28013000000,world,-0.000392009355416,-0.000308354276318,0.182465918578,-1.29795761683e-07,1.00819775954e-07,-0.00466733503236,0.999989107933
28047000000,2771,28023000000,world,-0.000392871843612,-0.000309367901914,0.182465926101,2.67168069287e-06,-2.21245311966e-06,-0.00466809623887,0.999989104373
28047000000,2772,28033000000,world,-0.00038972753541,-0.000308579934924,0.182464416525,3.73763726238e-07,6.47881017378e-06,-0.00466901908948,0.99998910005
28047000000,2773,28043000000,world,-0.000392067334753,-0.000308367755462,0.182465918578,-1.29787648131e-07,1.00819394579e-07,-0.00466998944694,0.99998909554
